{
  "type": "FeatureCollection",
  "features": [
    {
      "type": "Feature",
      "properties": {
        "Name": "Rockwoods @ Key of Sea",
        "Address": "1314 N Topsail Dr",
        "City": "Surf City, NC",
        "Family": "Rockwoods",
        "Phone": "",
        "Zip": "",
        "Website": "",
        "color": "green"
      },
      "geometry": {
        "type": "Point",
        "coordinates": [
          -77.52387106418608,
          34.43867707315609
        ]
      }
    },
    {
      "type": "Feature",
      "properties": {
        "Name": "Scotts @ Ava's Escape",
        "Address": "1313 N Topsail Dr",
        "City": "Surf City, NC",
        "Family": "Scotts",
        "Phone": "",
        "Zip": "",
        "Website": "",
        "color": "green"
      },
      "geometry": {
        "type": "Point",
        "coordinates": [
          -77.52413660287857,
          34.43897791868065
        ]
      }
    },
    {
      "type": "Feature",
      "properties": {
        "Name": "Rapiers @ Peaceful Cottage",
        "Address": "1119 N Shore Dr",
        "City": "Surf City, NC",
        "Family": "Rapiers",
        "Phone": "",
        "Zip": "",
        "Website": "",
        "color": "green"
      },
      "geometry": {
        "type": "Point",
        "coordinates": [
          -77.52671957015991,
          34.43664191321905
        ]
      }
    },
    {
      "type": "Feature",
      "properties": {
        "Name": "Greg Sherwoods @ Starboard",
        "Address": "1426 N New River Dr",
        "City": "Surf City, NC",
        "Family": "Greg Sherwoods",
        "Phone": "",
        "Zip": "",
        "Website": "",
        "color": "green"
      },
      "geometry": {
        "type": "Point",
        "coordinates": [
          -77.52182990312576,
          34.440528583210856
        ]
      }
    },
    {
      "type": "Feature",
      "properties": {
        "Name": "Allens @ Blistered",
        "Address": "4008 4th St",
        "City": "Surf City, NC",
        "Family": "Allens",
        "Phone": "",
        "Zip": "",
        "Website": "",
        "color": "green"
      },
      "geometry": {
        "type": "Point",
        "coordinates": [
          -77.51626968383789,
          34.44464069115919
        ]
      }
    },
    {
      "type": "Feature",
      "properties": {
        "Name": "Smiths @ Sunshine Trio",
        "Address": "513 N Shore Dr",
        "City": "Surf City, NC",
        "Family": "Smiths",
        "Phone": "",
        "Zip": "",
        "Website": "",
        "time": "",
        "color": "green"
      },
      "geometry": {
        "type": "Point",
        "coordinates": [
          -77.53657400608063,
          34.43095868786036
        ]
      }
    },
    {
      "type": "Feature",
      "properties": {
        "Name": "Wolfleys @ Our Catch",
        "Address": "1513-B N New River Inlet Dr",
        "City": "Surf City, NC",
        "Family": "Wolfleys",
        "Phone": "",
        "Zip": "",
        "Website": "",
        "color": "green"
      },
      "geometry": {
        "type": "Point",
        "coordinates": [
          -77.52098768949509,
          34.441479761192475
        ]
      }
    },
    {
      "type": "Feature",
      "properties": {
        "Name": "LDS Church",
        "Ward": "Hampstead Ward",
        "Time": "10am",
        "Address": "102 Deerfield Dr",
        "City": "Hampstead, NC",
        "Zip": "28443-2134",
        "Phone": "",
        "Family": "",
        "Website": "",
        "color": "orange"
      },
      "geometry": {
        "type": "Point",
        "coordinates": [
          -77.7158796787262,
          34.361717992490554
        ]
      }
    },
    {
      "type": "Feature",
      "properties": {
        "Name": "LDS Raleigh North Carolina Temple",
        "Address": "574 Bryan Dr",
        "City": "Apex, NC",
        "Zip": "27502-4127",
        "Phone": "(919) 362-4135",
        "Website": "https://www.lds.org/church/temples/raleigh-north-carolina",
        "Family": "",
        "color": "orange"
      },
      "geometry": {
        "type": "Point",
        "coordinates": [
          -78.86154770851135,
          35.732134671627584
        ]
      }
    },
    {
      "type": "Feature",
      "properties": {
        "Name": "Karen Beasley Sea Turtle Rescue",
        "Address": "302 Tortuga Dr",
        "City": "Surf City, NC",
        "Phone": "(910) 329-0222",
        "Website": "http://www.seaturtlehospital.org/",
        "Family": "",
        "Zip": "",
        "color": "purple"
      },
      "geometry": {
        "type": "Point",
        "coordinates": [
          -77.56708145141602,
          34.4420969150672
        ]
      }
    },
    {
      "type": "Feature",
      "properties": {
        "Name": "Poplar Grove Plantation",
        "Address": "10200 U.S. Hwy 17",
        "City": "Wilmington, NC",
        "Phone": "(910) 686-9518",
        "Website": "http://www.poplargrove.org/",
        "Family": "",
        "Zip": "",
        "color": "purple"
      },
      "geometry": {
        "type": "Point",
        "coordinates": [
          -77.76283979415894,
          34.31876155300695
        ]
      }
    },
    {
      "type": "Feature",
      "properties": {
        "Name": "Battleship North Carolina",
        "Address": "1 Battleship Rd NE",
        "City": "Wilmington, NC",
        "Phone": "(910) 251-5797",
        "Website": "http://www.battleshipnc.com/",
        "Family": "",
        "Zip": "",
        "color": "purple"
      },
      "geometry": {
        "type": "Point",
        "coordinates": [
          -77.95436024665833,
          34.23652582325145
        ]
      }
    },
    {
      "type": "Feature",
      "properties": {
        "Name": "North Carolina Aquarium @ Fort Fisher",
        "Address": "900 Loggerhead Rd",
        "City": "Kure Beach, NC",
        "Phone": "(910) 458-8257",
        "Website": "http://www.ncaquariums.com/fort-fisher",
        "Family": "",
        "Zip": "",
        "color": "purple"
      },
      "geometry": {
        "type": "Point",
        "coordinates": [
          -77.92666912078857,
          33.96290327662755
        ]
      }
    },
    {
      "type": "Feature",
      "properties": {
        "Name": "Fort Fisher Historic Museum",
        "Address": "1610 S Fort Fisher Blvd",
        "City": "Kure Beach, NC",
        "Phone": "(910) 458-5538",
        "Website": "http://www.nchistoricsites.org/fisher/fisher.htm",
        "Family": "",
        "Zip": "",
        "color": "purple"
      },
      "geometry": {
        "type": "Point",
        "coordinates": [
          -77.91769981384277,
          33.97169453115355
        ]
      }
    },
    {
      "type": "Feature",
      "properties": {
        "Name": "Topsail Island Historical Society",
        "Address": "720 Channel Boulevard",
        "City": "Topsail Beach, NC",
        "Phone": "(910) 328-8663",
        "Website": "http://topsailhistoricalsociety.org/",
        "Family": "",
        "Zip": "",
        "color": "purple"
      },
      "geometry": {
        "type": "Point",
        "coordinates": [
          -77.62987732887268,
          34.367350572414274
        ]
      }
    },
    {
      "type": "Feature",
      "properties": {
        "Name": "The Children's Museum of Wilmington",
        "Address": "116 Orange St",
        "City": "Wilmington, NC",
        "Phone": "(910) 254-3534",
        "Website": "http://www.playwilmington.org/index/page/index/",
        "Family": "",
        "Zip": "",
        "color": "purple"
      },
      "geometry": {
        "type": "Point",
        "coordinates": [
          -77.94747233390808,
          34.232751653371395
        ]
      }
    },
    {
      "type": "Feature",
      "properties": {
        "Name": "Missiles and More Museum",
        "Address": "720 Channel Boulevard",
        "City": "Topsail Beach, NC",
        "Phone": "(910) 328-8663",
        "Website": "http://missilesandmoremuseum.org/",
        "Family": "",
        "Zip": "",
        "color": "purple"
      },
      "geometry": {
        "type": "Point",
        "coordinates": [
          -77.6299524307251,
          34.36728858067088
        ]
      }
    },
    {
      "type": "Feature",
      "properties": {
        "Name": "Cape Fear Museum",
        "Address": "814 Market St",
        "City": "Wilmington, NC",
        "Phone": "(910) 798-4370",
        "Website": "http://capefearmuseum.com/",
        "Family": "",
        "Zip": "",
        "color": "purple"
      },
      "geometry": {
        "type": "Point",
        "coordinates": [
          -77.93846547603607,
          34.23583397868685
        ]
      }
    },
    {
      "type": "Feature",
      "properties": {
        "Name": "Wilmington Railroad Museum",
        "Address": "505 Nutt St #6",
        "City": "Wilmington, NC",
        "Phone": "(910) 763-2634",
        "Website": "http://www.wrrm.org/",
        "Family": "",
        "Zip": "",
        "color": "purple"
      },
      "geometry": {
        "type": "Point",
        "coordinates": [
          -77.9510235786438,
          34.24165239171332
        ]
      }
    },
    {
      "type": "Feature",
      "properties": {
        "Name": "University of North Carolina Wilmington",
        "Address": "601 S College Rd",
        "City": "Wilmington, NC",
        "Phone": "(910) 962-3000",
        "Website": "http://uncw.edu/",
        "Zip": "",
        "color": "purple"
      },
      "geometry": {
        "type": "Point",
        "coordinates": [
          -77.87130832672119,
          34.22386771628884
        ]
      }
    },
    {
      "type": "Feature",
      "properties": {
        "Name": "Costco of Wilmington",
        "Address": "5351 Gingerwood Dr",
        "City": "Wilmington, NC",
        "Phone": "(910) 798-3252",
        "Website": "http://www.costco.com/",
        "Family": "",
        "Zip": "",
        "color": "red"
      },
      "geometry": {
        "type": "Point",
        "coordinates": [
          -77.87268161773682,
          34.24889823708712
        ]
      }
    },
    {
      "type": "Feature",
      "properties": {
        "Name": "Costco of Raleigh",
        "Address": "2838 Wake Forest Rd",
        "City": "Raleigh, NC",
        "Phone": "(919) 755-2801",
        "Website": "http://www.costco.com/",
        "Family": "",
        "Zip": "",
        "color": "red"
      },
      "geometry": {
        "type": "Point",
        "coordinates": [
          -78.62142562866211,
          35.8180567532593
        ]
      }
    },
    {
      "type": "Feature",
      "properties": {
        "Name": "Sams Club of Wilmington",
        "Address": "412 S College Rd",
        "City": "Wilmington, NC",
        "Phone": "(910) 799-9808",
        "Website": "http://www.samsclub.com/sams/homepage.jsp",
        "Family": "",
        "Zip": "",
        "color": "blue"
      },
      "geometry": {
        "type": "Point",
        "coordinates": [
          -77.87789583206177,
          34.23362535991965
        ]
      }
    },
    {
      "type": "Feature",
      "properties": {
        "Name": "Sams Club of Jacksonville",
        "Address": "1170 Western Blvd",
        "City": "Jacksonville, NC",
        "Phone": "(910) 346-2148",
        "Website": "http://www.samsclub.com/sams/homepage.jsp",
        "Family": "",
        "Zip": "",
        "color": "blue"
      },
      "geometry": {
        "type": "Point",
        "coordinates": [
          -77.39629983901978,
          34.784201442718604
        ]
      }
    },
    {
      "type": "Feature",
      "properties": {
        "Name": "Carolina Beach Boardwalk",
        "Address": "Carolina Beach Ave S. & Harper Ave",
        "City": "Carolina Beach, NC",
        "Phone": "(910) 458-8434",
        "Website": "http://www.visitcarolinabeachnc.com/things-to-do/carolina-beach-boardwalk",
        "Family": "",
        "Zip": "",
        "color": "purple"
      },
      "geometry": {
        "type": "Point",
        "coordinates": [
          -77.89239048957825,
          34.03442593667515
        ]
      }
    },
    {
      "type": "Feature",
      "properties": {
        "Name": "Goodwill",
        "Address": "709 S Kerr Ave",
        "City": "Wilmington, NC",
        "Phone": "(910) 791-2764",
        "Website": "",
        "Family": "",
        "Zip": "",
        "color": "yellow"
      },
      "geometry": {
        "type": "Point",
        "coordinates": [
          -77.88552403450012,
          34.223974169409495
        ]
      }
    },
    {
      "type": "Feature",
      "properties": {
        "Name": "Goodwill",
        "Address": "5662 Carolina Beach Rd",
        "City": "Wilmington, NC",
        "Phone": "(910) 794-9650",
        "Website": "",
        "Family": "",
        "Zip": "",
        "time": "",
        "color": "yellow"
      },
      "geometry": {
        "type": "Point",
        "coordinates": [
          -77.89607048034668,
          34.13328064213726
        ]
      }
    },
    {
      "type": "Feature",
      "properties": {
        "Name": "Goodwill",
        "Address": "1113 Western Blvd",
        "City": "Jacksonville, NC",
        "Phone": "(910) 455-2025",
        "Website": "",
        "Family": "",
        "Zip": "",
        "color": "yellow"
      },
      "geometry": {
        "type": "Point",
        "coordinates": [
          -77.39305973052977,
          34.779901238959795
        ]
      }
    },
    {
      "type": "Feature",
      "properties": {
        "Name": "Souvenir Shop Gator",
        "Address": "13705 NC Hwy. 50",
        "City": "Surf City, NC",
        "Phone": "(910) 329-0241",
        "Website": "http://www.roadsideamerica.com/tip/9904",
        "Family": "",
        "Zip": "",
        "color": "purple"
      },
      "geometry": {
        "type": "Point",
        "coordinates": [
          -77.56113767623901,
          34.445662603745426
        ]
      }
    },
    {
      "type": "Feature",
      "properties": {
        "Name": "Giant Shark",
        "Address": "Hwy 210",
        "City": "Sneads Ferry, NC",
        "Phone": "(910) 327-1222",
        "Website": "http://www.roadsideamerica.com/tip/30533",
        "Family": "",
        "Zip": "",
        "color": "purple"
      },
      "geometry": {
        "type": "Point",
        "coordinates": [
          -77.43435502052307,
          34.526756359126644
        ]
      }
    }
  ]
}
